{"type":"FeatureCollection","crs":{"type":"name","properties":{"name":"urn:ogc:def:crs:OGC:1.3:CRS84"}},"features":[{"type":"Feature","id":"Montpelier","properties":{"name":"Montpelier"},"geometry":{"type":"Point","coordinates":[-72.575813234,44.259971536]}},{"type":"Feature","properties":{"name":"Dover"},"geometry":{"type":"Point","coordinates":[-75.524703005,39.158086567]},"id":"Dover"},{"type":"Feature","properties":{"name":"Annapolis"},"geometry":{"type":"Point","coordinates":[-76.492499229,38.978330098]},"id":"Annapolis"},{"type":"Feature","properties":{"name":"Carson City"},"geometry":{"type":"Point","coordinates":[-119.766395306,39.163848489]},"id":"Carson City"},{"type":"Feature","properties":{"name":"Little Rock"},"geometry":{"type":"Point","coordinates":[-92.331093182,34.73608258]},"id":"Little Rock"},{"type":"Feature","properties":{"name":"Jefferson City"},"geometry":{"type":"Point","coordinates":[-92.173325034,38.576623351]},"id":"Jefferson City"},{"type":"Feature","id":"Hartford","properties":{"name":"Hartford"},"geometry":{"type":"Point","coordinates":[-72.681912942,41.77196602]}},{"type":"Feature","id":"Providence","properties":{"name":"Providence"},"geometry":{"type":"Point","coordinates":[-71.416925556,41.823048173]}},{"type":"Feature","properties":{"name":"Springfield"},"geometry":{"type":"Point","coordinates":[-89.650016522,39.820009988]},"id":"Springfield"},{"type":"Feature","properties":{"name":"Frankfort"},"geometry":{"type":"Point","coordinates":[-84.873357179,38.200806497]},"id":"Frankfort"},{"type":"Feature","properties":{"name":"Madison"},"geometry":{"type":"Point","coordinates":[-89.401116986,43.073015563]},"id":"Madison"},{"type":"Feature","properties":{"name":"Trenton"},"geometry":{"type":"Point","coordinates":[-74.743355348,40.216962503]},"id":"Trenton"},{"type":"Feature","properties":{"name":"Lansing"},"geometry":{"type":"Point","coordinates":[-84.546736289,42.733527241]},"id":"Lansing"},{"type":"Feature","properties":{"name":"Lincoln"},"geometry":{"type":"Point","coordinates":[-96.680000856,40.819974792]},"id":"Lincoln"},{"type":"Feature","id":"Concord","properties":{"name":"Concord"},"geometry":{"type":"Point","coordinates":[-71.538047121,43.208071919]}},{"type":"Feature","properties":{"name":"Columbus"},"geometry":{"type":"Point","coordinates":[-82.991955463,39.981920243]},"id":"Columbus"},{"type":"Feature","id":"Albany","properties":{"name":"Albany"},"geometry":{"type":"Point","coordinates":[-73.81994918,42.670016906]}},{"type":"Feature","properties":{"name":"Harrisburg"},"geometry":{"type":"Point","coordinates":[-76.884749188,40.273599873]},"id":"Harrisburg"},{"type":"Feature","properties":{"name":"St Paul"},"geometry":{"type":"Point","coordinates":[-93.084974815,44.943986632]},"id":"St_Paul"},{"type":"Feature","properties":{"name":"Olympia"},"geometry":{"type":"Point","coordinates":[-122.899434043,47.03804486]},"id":"Olympia"},{"type":"Feature","properties":{"name":"Salem"},"geometry":{"type":"Point","coordinates":[-123.02389673,44.928070291]},"id":"Salem"},{"type":"Feature","properties":{"name":"Topeka"},"geometry":{"type":"Point","coordinates":[-95.669984987,39.050005309]},"id":"Topeka"},{"type":"Feature","properties":{"name":"Baton Rouge"},"geometry":{"type":"Point","coordinates":[-91.140158124,30.457945779]},"id":"Baton Rouge"},{"type":"Feature","properties":{"name":"Austin"},"geometry":{"type":"Point","coordinates":[-97.744724221,30.268895544]},"id":"Austin"},{"type":"Feature","properties":{"name":"Montgomery"},"geometry":{"type":"Point","coordinates":[-86.279188682,32.361602192]},"id":"Montgomery"},{"type":"Feature","properties":{"name":"Tallahassee"},"geometry":{"type":"Point","coordinates":[-84.280034222,30.449987609]},"id":"Tallahassee"},{"type":"Feature","properties":{"name":"Columbia"},"geometry":{"type":"Point","coordinates":[-80.899982139,34.039975198]},"id":"Columbia"},{"type":"Feature","properties":{"name":"Indianapolis"},"geometry":{"type":"Point","coordinates":[-86.171993915,39.751934281]},"id":"Indianapolis"},{"type":"Feature","properties":{"name":"Richmond"},"geometry":{"type":"Point","coordinates":[-77.451931863,37.551965206]},"id":"Richmond"},{"type":"Feature","properties":{"name":"Charleston"},"geometry":{"type":"Point","coordinates":[-81.63272811,38.349737975]},"id":"Charleston"},{"type":"Feature","id":"Augusta","properties":{"name":"Augusta"},"geometry":{"type":"Point","coordinates":[-69.779989056,44.310562764]}},{"type":"Feature","properties":{"name":"Helena"},"geometry":{"type":"Point","coordinates":[-112.035290977,46.592749043]},"id":"Helena"},{"type":"Feature","properties":{"name":"Bismarck"},"geometry":{"type":"Point","coordinates":[-100.783316286,46.80831728]},"id":"Bismarck"},{"type":"Feature","properties":{"name":"Boise"},"geometry":{"type":"Point","coordinates":[-116.22748987,43.608590107]},"id":"Boise"},{"type":"Feature","properties":{"name":"Sacramento"},"geometry":{"type":"Point","coordinates":[-121.471983946,38.57696724]},"id":"Sacramento"},{"type":"Feature","properties":{"name":"Santa Fe"},"geometry":{"type":"Point","coordinates":[-105.937239422,35.686928934]},"id":"Santa Fe"},{"type":"Feature","properties":{"name":"Salt Lake City"},"geometry":{"type":"Point","coordinates":[-111.931997781,40.776962154]},"id":"Salt Lake City"},{"type":"Feature","properties":{"name":"Cheyenne"},"geometry":{"type":"Point","coordinates":[-104.819710736,41.140006937]},"id":"Cheyenne"},{"type":"Feature","properties":{"name":"Des Moines"},"geometry":{"type":"Point","coordinates":[-93.619980918,41.579980081]},"id":"Des Moines"},{"type":"Feature","properties":{"name":"Oklahoma City"},"geometry":{"type":"Point","coordinates":[-97.520629373,35.471988806]},"id":"Oklahoma City"},{"type":"Feature","properties":{"name":"Pierre"},"geometry":{"type":"Point","coordinates":[-100.350552004,44.368337015]},"id":"Pierre"},{"type":"Feature","properties":{"name":"Jackson"},"geometry":{"type":"Point","coordinates":[-90.184996787,32.298815327]},"id":"Jackson"},{"type":"Feature","properties":{"name":"Raleigh"},"geometry":{"type":"Point","coordinates":[-78.644693442,35.818781351]},"id":"Raleigh"},{"type":"Feature","properties":{"name":"Nashville"},"geometry":{"type":"Point","coordinates":[-86.781930846,36.171920243]},"id":"Nashville"},{"type":"Feature","properties":{"name":"Juneau"},"geometry":{"type":"Point","coordinates":[-134.419996991,58.314126606]},"id":"Juneau"},{"type":"Feature","properties":{"name":"Honolulu"},"geometry":{"type":"Point","coordinates":[-157.859943745,21.308822302]},"id":"Honolulu"},{"type":"Feature","properties":{"name":"Phoenix"},"geometry":{"type":"Point","coordinates":[-112.07193756,33.541925736]},"id":"Phoenix"},{"type":"Feature","id":"Boston","properties":{"name":"Boston"},"geometry":{"type":"Point","coordinates":[-71.071959532,42.331906002]}},{"type":"Feature","properties":{"name":"Denver"},"geometry":{"type":"Point","coordinates":[-104.985961811,39.741133907]},"id":"Denver"},{"type":"Feature","properties":{"name":"Atlanta"},"geometry":{"type":"Point","coordinates":[-84.401895242,33.831959713]},"id":"Atlanta"}]}